{"type":"FeatureCollection","features":[{"type":"Feature","properties":{"name":"Erstes Wiener Wohnstrassen Gratzel","description":"https://www.meinbezirk.at/rudolfsheim-fuenfhaus/c-lokales/erstes-wiener-wohnstrassengraetzel-hinter-der-stadthalle_a4185582"},"geometry":{"type":"Point","coordinates":[16.330569,48.202143]},"id":"g0OTU"},{"type":"Feature","properties":{"name":"Wohnzimmer am Uhlplatz"},"geometry":{"type":"Point","coordinates":[16.340164,48.21231]},"id":"M2MTk"},{"type":"Feature","properties":{"name":"Spielstrasse Kleistgasse"},"geometry":{"type":"Point","coordinates":[16.389579,48.191197]},"id":"gzNTU"},{"type":"Feature","properties":{"name":"Krongarten"},"geometry":{"type":"Point","coordinates":[16.361617,48.193163]},"id":"kzNTU"},{"type":"Feature","properties":{"name":"Initiative Schwendermarkt"},"geometry":{"type":"Point","coordinates":[16.326365,48.190959]},"id":"E5NjM"}],"_umap_options":{"displayOnLoad":true,"inCaption":true,"browsable":true,"editMode":"advanced","remoteData":{},"name":"urban space","iconUrl":"/uploads/pictogram/guidepost.svg","color":"Blue","id":"1973d821-b36a-4685-ab7c-fcbc9c6a6c49","permissions":{"edit_status":0}}}